[
  {"city": "New York", "lat": 40.7128, "lon": -74.0060},
  {"city": "Los Angeles", "lat": 34.0522, "lon": -118.2437},
  {"city": "Chicago", "lat": 41.8781, "lon": -87.6298},
  {"city": "Houston", "lat": 29.7604, "lon": -95.3698},
  {"city": "Phoenix", "lat": 33.4484, "lon": -112.0740},
  {"city": "Philadelphia", "lat": 39.9526, "lon": -75.1652},
  {"city": "San Antonio", "lat": 29.4241, "lon": -98.4936},
  {"city": "San Diego", "lat": 32.7157, "lon": -117.1611},
  {"city": "Dallas", "lat": 32.7767, "lon": -96.7970},
  {"city": "San Jose", "lat": 37.3382, "lon": -121.8863},
  {"city": "Austin", "lat": 30.2672, "lon": -97.7431},
  {"city": "Jacksonville", "lat": 30.3322, "lon": -81.6557},
  {"city": "Fort Worth", "lat": 32.7555, "lon": -97.3308},
  {"city": "Columbus", "lat": 39.9612, "lon": -82.9988},
  {"city": "Charlotte", "lat": 35.2271, "lon": -80.8431},
  {"city": "San Francisco", "lat": 37.7749, "lon": -122.4194},
  {"city": "Indianapolis", "lat": 39.7684, "lon": -86.1581},
  {"city": "Seattle", "lat": 47.6062, "lon": -122.3321},
  {"city": "Denver", "lat": 39.7392, "lon": -104.9903},
  {"city": "Washington", "lat": 38.9072, "lon": -77.0369},
  {"city": "Boston", "lat": 42.3601, "lon": -71.0589},
  {"city": "El Paso", "lat": 31.7619, "lon": -106.4850},
  {"city": "Nashville", "lat": 36.1627, "lon": -86.7816},
  {"city": "Detroit", "lat": 42.3314, "lon": -83.0458},
  {"city": "Oklahoma City", "lat": 35.4676, "lon": -97.5164},
  {"city": "Portland", "lat": 45.5152, "lon": -122.6784},
  {"city": "Las Vegas", "lat": 36.1699, "lon": -115.1398},
  {"city": "Memphis", "lat": 35.1495, "lon": -90.0490},
  {"city": "Louisville", "lat": 38.2527, "lon": -85.7585},
  {"city": "Baltimore", "lat": 39.2904, "lon": -76.6122},
  {"city": "Milwaukee", "lat": 43.0389, "lon": -87.9065},
  {"city": "Albuquerque", "lat": 35.0844, "lon": -106.6504},
  {"city": "Tucson", "lat": 32.2226, "lon": -110.9747},
  {"city": "Fresno", "lat": 36.7378, "lon": -119.7871},
  {"city": "Sacramento", "lat": 38.5816, "lon": -121.4944},
  {"city": "Mesa", "lat": 33.4152, "lon": -111.8315},
  {"city": "Kansas City", "lat": 39.0997, "lon": -94.5786},
  {"city": "Atlanta", "lat": 33.7490, "lon": -84.3880},
  {"city": "Long Beach", "lat": 33.7701, "lon": -118.1937},
  {"city": "Colorado Springs", "lat": 38.8339, "lon": -104.8214},
  {"city": "Raleigh", "lat": 35.7796, "lon": -78.6382},
  {"city": "Miami", "lat": 25.7617, "lon": -80.1918},
  {"city": "Virginia Beach", "lat": 36.8529, "lon": -75.9780},
  {"city": "Omaha", "lat": 41.2565, "lon": -95.9345},
  {"city": "Oakland", "lat": 37.8044, "lon": -122.2712},
  {"city": "Minneapolis", "lat": 44.9778, "lon": -93.2650},
  {"city": "Tulsa", "lat": 36.1539, "lon": -95.9928},
  {"city": "Tampa", "lat": 27.9506, "lon": -82.4572},
  {"city": "New Orleans", "lat": 29.9511, "lon": -90.0715},
  {"city": "Cleveland", "lat": 41.4993, "lon": -81.6944}
]
